{"type": "FeatureCollection",
"features": 
[
    {
      "type": "Feature",
      "geometry": {
        "type": "Point",
        "coordinates": [
          -122.4225186,
          37.7885012
        ]
      },
      "properties": {
        "name": "Planned Parenthood - San Francisco Health Center",
        "located": "Own Building",
        "phoneFormatted": "(415) 821-1282",
        "phone": "4158211282",
        "address": "1522 Bush St",
        "city": "San Francisco",
        "country": "United States",
        "postalCode": "94109",
        "state": "CA"
      }
    },
    {
      "type": "Feature",
      "geometry": {
        "type": "Point",
        "coordinates": [
          -122.4064712524414,
          37.75478744506836
        ]
      },
      "properties": {
        "name": "San Francisco Women's Health",
        "located": "Zuckerberg San Francisco General Hospital and Trauma Center",
        "phoneFormatted": "(415) 206-3409",
        "phone": "4152063409",
        "address": "1001 Potrero Ave",
        "city": "San Francisco",
        "country": "United States",
        "postalCode": "94110",
        "state": "CA"
      }
    },
    {
      "type": "Feature",
      "geometry": {
        "type": "Point",
        "coordinates": [
          -122.419837,
          37.7693179
        ]
      },
      "properties": {
        "name": "Women's Community Clinic",
        "located": "Own Building",
        "phoneFormatted": "(415) 379-7800",
        "phone": "4153797800",
        "address": "1735 Mission St",
        "city": "San Francisco",
        "country": "United States",
        "postalCode": "94103",
        "state": "CA"
      }
    },
    {
      "type": "Feature",
      "geometry": {
        "type": "Point",
        "coordinates": [
          -122.4393639,
          37.7858067
        ]
      },
      "properties": {
        "name": "Women's Health Center",
        "located": "UCSF Pediatrics at Mount Zion",
        "phoneFormatted": "(415) 885-7788",
        "phone": "4158857788",
        "address": "2356 Sutter St",
        "city": "San Francisco",
        "country": "United States",
        "postalCode": "94143",
        "state": "CA"
      }
    },
    {
      "type": "Feature",
      "geometry": {
        "type": "Point",
        "coordinates": [
          -122.43096160888672,
          37.79132843017578
        ]
      },
      "properties": {
        "name": "Women's Health Resource Center: California Pacific Medical Center",
        "located": "CPMC Pacific Heights Outpatient Center",
        "phoneFormatted": "(415) 600-0500",
        "phone": "4156000500",
        "address": "2333 Buchanan St",
        "city": "San Francisco",
        "country": "United States",
        "postalCode": "94115",
        "state": "CA"
      }
    }
    
]}